City,Lat,Lng,Max Temp,Humidity,Cloudiness,Wind Speed,Country,Date
bredasdorp,-34.5322,20.0403,64.4,88,0,1.14,ZA,1613274772
victoria,22.2855,114.1577,72.0,64,0,1.01,HK,1613274480
cherskiy,68.75,161.3,-4.49,86,100,8.84,RU,1613274774
castro,-24.7911,-50.0119,62.04,95,1,3.22,BR,1613274776
helong,42.5397,128.9972,34.16,89,100,4.09,CN,1613274777
busselton,-33.65,115.3333,84.42,39,19,6.96,AU,1613274778
norman wells,65.282,-126.8329,-18.4,76,1,2.3,CA,1613274779
fairbanks,64.8378,-147.7164,0.0,84,1,2.13,US,1613274485
channel-port aux basques,47.5702,-59.1367,22.98,94,97,17.25,CA,1613274781
avarua,-21.2078,-159.775,84.2,70,11,6.91,CK,1613274511
coffs harbour,-30.3,153.1333,77.0,61,90,20.71,AU,1613274785
tiksi,71.6872,128.8694,-15.11,89,100,8.63,RU,1613274786
talnakh,69.4865,88.3972,-24.16,85,100,2.75,RU,1613274787
sanandaj,35.3144,46.9923,26.6,86,0,2.28,IR,1613274788
khatanga,71.9667,102.5,-31.86,82,16,5.88,RU,1613274789
troitsko-pechorsk,62.7084,56.1964,-2.9,90,100,12.55,RU,1613274499
hambantota,6.1241,81.1185,80.6,89,32,5.75,LK,1613274774
horta,38.5333,-28.6333,56.61,70,77,28.66,PT,1613274793
hasaki,35.7333,140.8333,64.0,48,75,9.22,JP,1613274794
jardim,-21.4803,-56.1381,71.11,88,0,3.0,BR,1613274795
punta arenas,-53.15,-70.9167,46.4,76,90,11.5,CL,1613274698
qaanaaq,77.484,-69.3632,9.28,77,0,6.17,GL,1613274797
saldanha,-33.0117,17.9442,68.0,83,8,4.61,ZA,1613274798
thompson,55.7435,-97.8558,-20.2,76,20,4.61,CA,1613274644
longyearbyen,78.2186,15.6401,5.0,61,75,12.66,SJ,1613274763
port hedland,-20.3167,118.5667,89.6,51,0,12.66,AU,1613274802
hermanus,-34.4187,19.2345,60.01,95,0,6.29,ZA,1613274803
arraial do cabo,-22.9661,-42.0278,75.72,88,100,14.34,BR,1613274805
asyut,27.181,31.1837,48.2,81,0,6.91,EG,1613274808
rio gallegos,-51.6226,-69.2181,44.6,45,0,9.22,AR,1613274809
mahebourg,-20.4081,57.7,78.8,83,40,5.75,MU,1613274811
hobart,-42.8794,147.3294,78.01,52,20,12.66,AU,1613274797
tuktoyaktuk,69.4541,-133.0374,-11.2,77,40,8.05,CA,1613274635
acapulco,16.8634,-99.8901,77.0,69,1,3.44,MX,1613274814
tautira,-17.7333,-149.15,84.2,70,40,8.05,PF,1613274816
mataura,-46.1927,168.8643,62.06,67,100,1.1,NZ,1613274818
yulara,-25.2406,130.9889,82.4,39,90,14.97,AU,1613274819
barrow,71.2906,-156.7887,-13.0,77,75,9.22,US,1613274820
upernavik,72.7868,-56.1549,6.67,94,97,11.45,GL,1613274821
tabou,4.423,-7.3528,78.55,90,22,9.62,CI,1613274799
cape town,-33.9258,18.4232,68.0,94,40,6.91,ZA,1613274824
ushuaia,-54.8,-68.3,41.0,87,40,3.44,AR,1613274825
winona,43.9666,-91.7668,-7.6,59,1,5.75,US,1613274676
provideniya,64.3833,-173.3,9.1,91,100,16.89,RU,1613274827
berwick,41.0545,-76.2333,27.0,61,100,1.54,US,1613274828
kodiak,57.79,-152.4072,35.73,92,100,30.82,US,1613274829
pacifica,37.6138,-122.4869,52.0,87,1,14.97,US,1613274830
souillac,-20.5167,57.5167,78.8,83,40,5.75,MU,1613274832
kotaparh,19.15,82.35,76.95,40,3,5.66,IN,1613274833
itacoatiara,-3.1431,-58.4442,75.4,95,100,0.18,BR,1613274772
joshimath,30.5667,79.5667,55.35,31,18,2.66,IN,1613274835
brejo,-3.6844,-42.7503,74.16,98,87,3.0,BR,1613274836
aktash,50.3,87.7333,9.16,88,41,4.16,RU,1613274639
rikitea,-23.1203,-134.9692,80.29,74,98,12.93,PF,1613274636
milkovo,54.7167,158.6167,7.63,88,8,2.17,RU,1613274840
ahipara,-35.1667,173.1667,73.31,75,100,10.02,NZ,1613274841
tingi,-11.3,35.0333,64.96,89,100,1.12,TZ,1613274842
los llanos de aridane,28.6585,-17.9182,59.0,82,0,9.22,ES,1613274843
carnarvon,-24.8667,113.6333,84.2,89,75,12.66,AU,1613274844
bluff,-46.6,168.3333,58.68,81,100,3.6,NZ,1613274845
albany,42.6001,-73.9662,19.99,42,100,2.93,US,1613274848
yerbogachen,61.2767,108.0108,-19.5,85,34,1.86,RU,1613274849
pangnirtung,66.1451,-65.7125,-22.09,80,89,2.82,CA,1613274850
new norfolk,-42.7826,147.0587,78.01,36,0,3.0,AU,1613274772
bom jesus,-9.0744,-44.3586,74.35,69,97,0.49,BR,1613274852
winslow,35.0242,-110.6974,39.99,81,90,20.71,US,1613274853
nuristan,35.3,70.8333,20.05,76,0,9.19,AF,1613274855
belyy yar,53.6039,91.3903,-2.2,71,90,2.24,RU,1613274856
serebryanyy bor,56.8,124.8,-13.92,85,100,11.63,RU,1613274857
manado,1.487,124.8455,89.6,58,20,8.05,ID,1613274858
walvis bay,-22.9575,14.5053,66.2,94,58,2.3,NA,1613274859
dikson,73.5069,80.5464,-19.1,88,100,12.19,RU,1613274646
caravelas,-17.7125,-39.2481,73.71,85,76,4.25,BR,1613274861
olafsvik,64.8945,-23.7142,39.07,74,100,23.29,IS,1613274863
georgetown,5.4112,100.3354,87.8,48,20,6.91,MY,1613274737
kapaa,22.0752,-159.319,77.0,69,90,10.36,US,1613274865
namioka,40.7072,140.5894,48.99,70,75,9.22,JP,1613274794
mecca,21.4267,39.8261,73.74,60,0,3.33,SA,1613274868
tuatapere,-46.1333,167.6833,61.47,76,100,4.32,NZ,1613274869
llata,-9.4167,-76.7833,54.66,72,91,2.3,PE,1613274870
chokurdakh,70.6333,147.9167,-19.03,79,0,1.57,RU,1613274872
padang,-0.9492,100.3543,87.8,66,20,6.91,ID,1613274873
tyukhtet,56.5389,89.3011,5.29,94,100,9.37,RU,1613274876
norrtalje,59.758,18.705,26.01,82,49,10.0,SE,1613274877
atuona,-9.8,-139.0333,79.07,80,1,17.16,PF,1613274879
hilo,19.7297,-155.09,73.4,83,75,3.44,US,1613274766
dingle,10.9995,122.6711,82.04,80,100,10.07,PH,1613274881
praia,14.9215,-23.5087,68.0,77,20,20.71,CV,1613274882
willowmore,-33.2926,23.4895,70.07,79,68,4.25,ZA,1613274883
jamestown,42.097,-79.2353,23.0,100,90,5.75,US,1613274884
codrington,-38.2667,141.9667,64.24,61,100,11.65,AU,1613274885
axim,4.8699,-2.2405,79.95,85,6,10.04,GH,1613274887
fortuna,40.5982,-124.1573,48.0,93,75,2.51,US,1613274888
kastamonu,41.5,33.6667,25.05,96,100,3.85,TR,1613274889
wilmington,34.2257,-77.9447,41.0,93,90,6.91,US,1613274890
nikolskoye,59.7035,30.7861,17.6,86,75,4.47,RU,1613274891
daru,-9.0763,143.2092,85.28,73,91,0.47,PG,1613274892
la ronge,55.1001,-105.2842,-18.4,83,11,2.3,CA,1613274781
vaini,-21.2,-175.2,84.2,79,20,10.36,TO,1613274895
pathein,16.7833,94.7333,84.78,37,0,7.18,MM,1613274748
port elizabeth,-33.918,25.5701,71.6,94,0,6.91,ZA,1613274768
libreville,0.3925,9.4537,80.6,94,40,4.61,GA,1613274899
tessalit,20.1986,1.0114,69.28,18,0,16.75,ML,1613274900
sao filipe,14.8961,-24.4956,69.78,75,0,6.78,CV,1613274901
inirida,3.8653,-67.9239,75.11,93,100,1.32,CO,1613274903
senanga,-16.1167,23.2667,64.44,75,96,3.74,ZM,1613274904
constitucion,-35.3333,-72.4167,55.74,88,33,8.16,CL,1613274905
the valley,18.217,-63.0578,78.8,69,20,13.8,AI,1613274832
cabo san lucas,22.8909,-109.9124,64.99,77,1,11.5,MX,1613274673
guerrero negro,27.9769,-114.0611,58.69,74,97,16.96,MX,1613274910
north platte,41.1239,-100.7654,-0.4,65,90,9.22,US,1613274763
sirjan,29.452,55.6814,48.09,45,0,2.66,IR,1613274912
victor harbor,-35.5667,138.6167,66.99,67,40,1.99,AU,1613274913
roald,62.5833,6.1333,26.6,63,0,16.11,NO,1613274914
narsaq,60.9167,-46.05,37.4,56,40,3.44,GL,1613274624
belen,36.4891,36.2233,42.8,100,40,2.3,TR,1613274917
shimanovsk,52.0,127.7,-0.76,89,100,8.7,RU,1613274918
verkhnyaya inta,65.9811,60.3094,-22.11,86,18,9.44,RU,1613274919
geraldton,-28.7667,114.6,91.4,38,58,10.36,AU,1613274920
vitim,59.4511,112.5578,-5.55,87,100,3.29,RU,1613274921
dingli,35.8614,14.3822,54.0,76,40,20.71,MT,1613274922
payson,40.0444,-111.7321,35.6,93,90,26.46,US,1613274923
butaritari,3.0707,172.7902,81.21,80,78,15.88,KI,1613274925
kieta,-6.2167,155.6333,83.98,77,92,10.47,PG,1613274926
bijar,35.8668,47.6051,32.02,85,0,3.91,IR,1613274927
lavrentiya,65.5833,-171.0,-1.08,90,100,12.33,RU,1613274747
deputatskiy,69.3,139.9,-28.7,86,6,3.04,RU,1613274929
port said,31.2565,32.2841,59.0,82,0,6.91,EG,1613274930
lodja,-3.4833,23.4333,71.49,94,100,2.08,CD,1613274932
port blair,11.6667,92.75,82.4,78,75,9.22,IN,1613274933
winsum,53.33,6.5208,19.99,86,88,1.99,NL,1613274934
ilulissat,69.2167,-51.1,12.2,79,90,14.97,GL,1613274936
auki,-8.7676,160.7034,81.43,81,99,8.61,SB,1613274937
djibo,14.1022,-1.6306,74.79,17,0,9.48,BF,1613274938
saint-paul,-21.0096,55.2707,73.0,83,2,1.01,RE,1613274940
chuy,-33.6971,-53.4616,68.99,93,93,6.29,UY,1613274751
namatanai,-3.6667,152.4333,83.3,78,100,7.14,PG,1613274943
mayor pablo lagerenza,-19.9309,-60.7718,77.86,73,82,7.29,PY,1613274944
puerto ayora,-0.7393,-90.3518,77.0,90,98,5.82,EC,1613274945
pobe,6.9801,2.6649,77.67,90,7,4.09,BJ,1613274799
port alfred,-33.5906,26.891,73.0,94,64,3.0,ZA,1613274948
boa vista,2.8197,-60.6733,80.6,69,75,13.8,BR,1613274949
genhe,50.7833,121.5167,-2.9,84,79,7.52,CN,1613274950
shakawe,-18.3667,21.85,63.93,78,81,6.58,BW,1613274951
yanam,16.7333,82.2167,77.0,73,6,2.3,IN,1613274952
miyako,39.6367,141.9525,51.94,68,100,3.49,JP,1613274953
dongsheng,39.8161,109.9776,26.28,82,83,16.44,CN,1613274955
pisco,-13.7,-76.2167,69.8,83,0,16.11,PE,1613274758
namibe,-15.1961,12.1522,72.32,73,67,4.94,AO,1613274794
waddan,29.1614,16.139,53.19,65,0,9.44,LY,1613274958
farsund,58.0948,6.8047,31.26,89,48,5.5,NO,1613274959
grand gaube,-20.0064,57.6608,82.0,68,10,8.01,MU,1613274961
zdvinsk,54.7021,78.661,15.12,97,100,9.15,RU,1613274962
maceio,-9.6658,-35.7353,73.4,94,75,4.61,BR,1613274964
hay river,60.8156,-115.7999,-0.4,71,0,8.05,CA,1613274965
saskatoon,52.1168,-106.6345,-25.01,68,20,8.05,CA,1613274966
northam,51.0333,-4.2167,43.0,92,100,18.01,GB,1613274967
tchollire,8.4022,14.1698,69.03,23,0,1.39,CM,1613274968
bandarbeyla,9.4942,50.8122,74.16,71,70,12.03,SO,1613274969
vardo,70.3705,31.1107,25.56,91,100,16.24,NO,1613274970
ovalle,-30.5983,-71.2003,57.92,84,0,0.83,CL,1613274972
omsukchan,62.5333,155.8,-20.65,84,100,4.14,RU,1613274973
aklavik,68.2191,-135.0107,-9.4,77,100,4.61,CA,1613274975
praya,14.9215,-23.5087,68.0,77,20,20.71,CV,1613274882
torbay,47.6666,-52.7314,25.0,74,90,16.11,CA,1613274978
zaozerne,45.1582,33.2787,26.01,61,96,3.0,UA,1613274979
camana,-16.6228,-72.7111,70.88,81,1,6.58,PE,1613274980
lithgow,-33.4833,150.15,64.0,84,64,1.01,AU,1613274982
mutoko,-17.397,32.2268,62.62,99,74,3.11,ZW,1613274983
iranshahr,27.2025,60.6848,53.6,28,0,6.91,IR,1613274984
la libertad,-2.2333,-80.9,77.38,81,47,7.76,EC,1613274985
husavik,66.0449,-17.3389,37.4,70,90,18.41,IS,1613274986
arcata,40.8665,-124.0828,48.0,93,90,3.6,US,1613274988
yumen,40.2833,97.2,32.36,81,0,13.6,CN,1613274990
alta floresta,-9.8756,-56.0861,71.64,97,100,2.13,BR,1613274991
aiken,33.5835,-81.5998,41.0,100,90,8.05,US,1613274992
karimganj,24.8667,92.35,77.97,35,0,3.06,IN,1613274993
port lincoln,-34.7333,135.8667,66.69,61,72,13.94,AU,1613274741
mar del plata,-38.0023,-57.5575,69.01,94,0,4.61,AR,1613274995
ondjiva,-17.0667,15.7333,61.21,90,52,2.24,AO,1613274996
beni mazar,28.4962,30.8029,49.21,85,0,7.2,EG,1613274998
agdam,39.991,46.9274,42.06,87,97,2.48,AZ,1613274999
cockburn town,21.4612,-71.1419,77.65,80,5,25.01,TC,1613275000
vila franca do campo,37.7167,-25.4333,57.2,72,20,20.71,PT,1613275001
kushima,31.4583,131.2333,62.6,94,75,10.36,JP,1613275002
esna,25.2934,32.554,53.6,58,0,6.76,EG,1613274843
businga,3.3333,20.8833,68.95,38,95,0.6,CD,1613275004
salalah,17.0151,54.0924,64.4,55,0,5.75,OM,1613275006
basco,20.4487,121.9702,73.18,72,30,6.11,PH,1613275007
saint george,37.1041,-113.5841,48.99,53,1,13.8,US,1613274750
severo-kurilsk,50.6789,156.125,26.8,92,97,9.98,RU,1613274739
marataizes,-21.0433,-40.8244,75.04,85,100,13.09,BR,1613275010
gezing,47.9178,13.1299,15.01,85,0,3.44,AT,1613275011
amberley,39.2048,-84.428,26.6,74,90,9.22,US,1613275012
aquiraz,-3.9014,-38.3911,82.4,78,75,10.36,BR,1613274771
bako,5.7833,36.5667,67.42,52,75,4.47,ET,1613275015
klaksvik,62.2266,-6.589,37.4,93,90,41.43,FO,1613274830
richmond hill,43.8711,-79.4372,14.0,85,100,3.0,CA,1613274762
ponta do sol,32.6667,-17.1,54.0,39,0,5.01,PT,1613275018
maturin,9.75,-63.1767,70.23,96,4,4.0,VE,1613275019
yellowknife,62.456,-114.3525,-9.0,77,1,10.36,CA,1613274745
duma,34.7653,108.135,41.0,100,90,2.24,CN,1613275022
richards bay,-28.783,32.0377,75.18,94,100,1.72,ZA,1613275024
egvekinot,66.3167,-179.1667,-11.49,91,100,17.22,RU,1613275025
celestun,20.8667,-90.4,72.73,89,0,4.21,MX,1613275026
saskylakh,71.9167,114.0833,-29.78,78,52,4.09,RU,1613275027
clyde river,70.4692,-68.5914,-4.0,92,100,8.05,CA,1613275029
yar-sale,66.8333,70.8333,-29.47,85,4,4.29,RU,1613275030
tabuk,17.4189,121.4443,77.86,68,45,3.71,PH,1613275031
portree,57.4129,-6.1942,39.0,77,100,37.0,GB,1613275032
bethel,41.3712,-73.414,25.0,46,90,6.91,US,1613275033
airai,-8.9266,125.4092,74.16,74,99,3.96,TL,1613275034
hastings,50.8552,0.5729,35.01,51,100,5.01,GB,1613275036
kaitangata,-46.2817,169.8464,66.0,68,84,4.0,NZ,1613275037
port augusta,-32.5,137.7667,86.0,56,0,14.97,AU,1613275038
bengkulu,-3.8004,102.2655,85.66,63,100,5.06,ID,1613274826
kruisfontein,-34.0033,24.7314,72.0,96,99,3.22,ZA,1613275040
havoysund,70.9963,24.6622,24.8,86,90,10.36,NO,1613275041
seoul,37.5683,126.9778,59.0,35,75,3.44,KR,1613274997
tasiilaq,65.6145,-37.6368,30.16,93,100,21.77,GL,1613275044
mizdah,31.4451,12.9801,49.24,85,0,12.66,LY,1613275045
ermelo,-26.5333,29.9833,59.7,97,100,6.06,ZA,1613275046
bilibino,68.0546,166.4372,-9.27,85,100,6.73,RU,1613275047
lasa,46.6166,10.7002,17.01,39,0,1.03,IT,1613275048
kondinskoye,59.6481,67.41,3.2,94,100,11.97,RU,1613275049
gornopravdinsk,60.05,69.9,1.89,93,100,8.32,RU,1613275050
cervo,43.6702,-7.4101,53.58,76,88,8.93,ES,1613275052
hithadhoo,-0.6,73.0833,82.87,73,98,7.61,MV,1613275053
zabaykalsk,49.6333,117.3167,-8.93,85,6,8.68,RU,1613275054
lixourion,38.2019,20.4314,52.74,84,99,10.31,GR,1613275055
peterhead,57.5058,-1.7981,34.0,86,90,18.41,GB,1613275056
nara,34.6851,135.8049,66.0,45,75,2.3,JP,1613275055
goderich,43.7501,-81.7165,12.2,85,100,4.61,CA,1613274789
kangaatsiaq,68.3065,-53.4641,5.32,92,100,13.98,GL,1613275060
krnov,50.0897,17.7039,15.01,95,51,6.73,CZ,1613275061
kondopoga,62.2057,34.2614,5.0,85,92,6.71,RU,1613275062
honningsvag,70.9821,25.9704,28.29,90,100,17.4,NO,1613275063
adeje,28.1227,-16.726,62.6,63,20,4.61,ES,1613275065
rawatbhata,24.9333,75.5833,74.17,27,0,5.26,IN,1613275068
kamaishi,39.2667,141.8833,42.8,65,75,2.3,JP,1613275069
karratha,-20.7377,116.8463,85.95,54,25,11.36,AU,1613275070
abu zabad,12.35,29.25,65.44,27,0,11.77,SD,1613275071
margate,51.3813,1.3862,33.01,49,100,8.01,GB,1613274792
ostrovnoy,68.0531,39.5131,-6.75,91,69,5.91,RU,1613275074
awjilah,29.1081,21.2869,55.27,40,0,9.1,LY,1613275076
currais novos,-6.2608,-36.5178,73.6,85,24,13.96,BR,1613275077
zhigansk,66.7697,123.3711,-12.19,88,100,12.77,RU,1613275078
viseu,40.661,-7.9097,48.99,92,100,1.01,PT,1613275079
half moon bay,37.4636,-122.4286,52.0,87,1,14.97,US,1613275080
champerico,14.3,-91.9167,64.0,93,0,9.64,GT,1613275081
naryan-mar,67.6713,53.087,-20.97,88,35,1.19,RU,1613275082
moron,-34.6534,-58.6198,72.0,100,75,2.3,AR,1613275084
kiama,-34.6833,150.8667,73.99,60,40,14.97,AU,1613275085
bang saphan,11.2126,99.5117,87.01,70,20,4.61,TH,1613275086
thayetmyo,19.3167,95.1833,85.93,25,45,3.85,MM,1613275087
storforshei,66.4043,14.5233,17.6,93,75,2.06,NO,1613275088
olinda,-8.0089,-34.8553,78.8,65,75,5.75,BR,1613275091
cidreira,-30.1811,-50.2056,72.99,86,99,2.44,BR,1613275092
san ramon,37.7799,-121.978,53.01,71,1,8.05,US,1613275077
conakry,9.538,-13.6773,78.73,75,0,8.16,GN,1613275095
santa barbara,34.7333,-120.0343,48.99,87,1,6.91,US,1613274902
tiarei,-17.5333,-149.3333,84.2,70,40,8.05,PF,1613275098
petropavlovsk-kamchatskiy,53.0452,158.6483,19.4,45,69,2.24,RU,1613275099
baruun-urt,46.6806,113.2792,-3.53,84,0,7.49,MN,1613275101
catamarca,-28.4696,-65.7852,73.99,73,24,1.01,AR,1613275102
mae sot,16.7167,98.5667,75.2,57,3,1.14,TH,1613275103
batagay,67.6333,134.6333,-15.38,87,59,1.61,RU,1613275104
saint-philippe,-21.3585,55.7679,80.6,69,0,16.11,RE,1613275106
makakilo city,21.3469,-158.0858,80.6,57,90,6.91,US,1613275107
pouembout,-21.1333,164.9,83.5,66,27,5.64,NC,1613275108
ponta delgada,37.7333,-25.6667,57.2,72,20,20.71,PT,1613275109
batemans bay,-35.7167,150.1833,69.01,75,3,5.99,AU,1613275110
port-cartier,50.0334,-66.8654,-0.4,78,1,4.61,CA,1613275111
choya,52.0108,86.5467,21.02,89,83,0.65,RU,1613275112
patawag,8.1064,122.6208,84.7,70,81,3.83,PH,1613275115
sinop,41.7711,34.8709,27.12,96,100,3.94,TR,1613275116
nanortalik,60.1432,-45.2371,33.58,89,100,1.83,GL,1613275117
haicheng,40.8516,122.7475,26.37,97,100,15.26,CN,1613275118
lakes entrance,-37.8811,147.981,69.01,66,0,4.0,AU,1613275119
muros,42.7762,-9.0603,55.99,82,100,1.99,ES,1613275121
hami,42.8,93.45,36.81,67,0,7.56,CN,1613275123
nome,64.5011,-165.4064,24.8,54,1,5.75,US,1613275045
korcula,42.9622,17.1369,28.4,31,40,20.71,HR,1613274920
san quintin,30.4833,-115.95,56.79,80,85,11.77,MX,1613275126
bambari,5.768,20.6757,69.46,27,55,1.34,CF,1613275127
tiznit,29.5833,-9.5,60.08,50,0,1.77,MA,1613275129
lethem,3.3803,-59.7968,78.26,70,65,12.12,GY,1613275130
pinega,64.7001,43.3936,-9.85,89,100,5.28,RU,1613275132
dwarka,22.2394,68.9678,73.02,68,0,6.44,IN,1613275133
savona,44.3,8.2667,36.0,99,1,8.34,IT,1613275134
oriximina,-1.7656,-55.8661,76.08,93,99,6.08,BR,1613274866
mount gambier,-37.8333,140.7667,68.0,56,40,16.11,AU,1613275137
east london,-33.0153,27.9116,75.2,94,90,10.36,ZA,1613275068
saint-georges,12.0564,-61.7485,78.8,78,20,14.97,GD,1613275139
lorengau,-2.0226,147.2712,83.61,73,98,7.72,PG,1613275140
vestmannaeyjar,63.4427,-20.2734,41.88,85,100,48.43,IS,1613275141
katsuura,35.1333,140.3,64.0,51,40,14.97,JP,1613275142
rongcheng,30.634,117.8517,67.35,55,31,10.04,CN,1613275143
tuy hoa,13.0833,109.3,71.85,73,81,10.02,VN,1613275145
urdoma,61.7533,48.5442,-1.07,88,100,13.15,RU,1613275146
vilya,55.2456,42.2089,-1.1,93,99,1.01,RU,1613275147
lagoa,39.05,-27.9833,56.98,69,66,31.23,PT,1613275148
esperance,-33.8667,121.9,78.8,41,44,10.36,AU,1613275149
mayo,38.8876,-76.5119,30.0,93,90,11.5,US,1613275150
faanui,-16.4833,-151.75,81.66,69,19,5.46,PF,1613275152
araouane,18.9048,-3.5265,68.83,19,0,9.62,ML,1613275153
tarquinia,42.2482,11.7553,27.0,48,0,11.01,IT,1613275154
jibuti,11.5,42.5,71.6,83,1,9.95,DJ,1613275155
panorama,40.5878,23.0315,28.0,93,90,21.85,GR,1613275156
christchurch,-43.5333,172.6333,72.0,49,100,12.66,NZ,1613275157
santa rosa,14.3122,121.1114,84.99,78,40,8.05,PH,1613275158
taltal,-25.4,-70.4833,66.2,73,0,4.79,CL,1613275160
lebu,-37.6167,-73.65,56.86,78,1,17.47,CL,1613275077
grenville,12.1167,-61.6167,78.8,78,20,14.97,GD,1613275162
polunochnoye,60.8697,60.4153,-14.12,90,100,7.56,RU,1613275163
merke,42.8728,73.1786,42.75,63,50,3.56,KZ,1613275164
artyom,40.4723,50.333,41.0,81,90,9.22,AZ,1613275165
sitka,57.0531,-135.33,30.2,47,20,5.75,US,1613275168
aasiaat,68.7098,-52.8699,2.01,92,100,12.15,GL,1613275169
portland,45.5234,-122.6762,30.0,74,90,11.5,US,1613274920
iqaluit,63.7506,-68.5145,-11.0,77,75,0.98,CA,1613275171
powell river,49.8496,-124.5361,32.0,100,75,3.44,CA,1613275172
aswan,24.0934,32.907,59.88,34,0,7.74,EG,1613275173
lingyuan,41.24,119.4011,18.23,92,100,13.04,CN,1613275175
sapulpa,35.9987,-96.1142,14.0,62,1,13.8,US,1613275176
puerto escondido,15.85,-97.0667,74.26,73,0,7.99,MX,1613275177
aix-en-provence,43.5283,5.4497,39.99,86,91,3.44,FR,1613275094
wucheng,29.6008,118.175,64.0,85,65,4.47,CN,1613275179
palembang,-2.9167,104.7458,82.4,78,40,10.36,ID,1613275181
patan,27.6667,85.3333,57.2,77,40,2.3,NP,1613275182
altay,47.8667,88.1167,16.32,78,10,1.07,CN,1613275183
tahta,26.7693,31.5021,48.2,71,0,4.61,EG,1613275184
paamiut,61.994,-49.6678,12.25,93,12,20.83,GL,1613275185
oranjemund,-28.55,16.4333,63.14,92,54,2.64,NA,1613275186
bage,-31.3314,-54.1069,68.0,94,0,5.75,BR,1613275187
ayan,56.45,138.1667,20.23,96,100,10.67,RU,1613275189
trairi,-3.2778,-39.2689,78.6,88,72,9.51,BR,1613275190
punahana,27.8667,77.2,69.01,64,0,2.17,IN,1613275191
garden city,42.3256,-83.331,21.2,79,90,3.44,US,1613275192
lompoc,34.6391,-120.4579,53.6,76,1,14.97,US,1613275176
tromso,69.6496,18.957,23.0,93,75,11.5,NO,1613275194
saint-jerome,45.7804,-74.0036,9.0,61,90,5.75,CA,1613274950
vanimo,-2.6741,141.3028,82.63,82,53,10.51,PG,1613275197
dmitriyevka,54.75,55.3333,21.2,68,75,17.9,RU,1613275198
high level,58.5169,-117.136,-14.8,76,1,2.3,CA,1613275199
ozinki,51.1786,49.6769,13.75,94,66,11.56,RU,1613275200
mirnyy,62.5353,113.9611,-22.38,85,32,5.14,RU,1613275202
manoharpur,27.3,75.95,69.8,40,20,3.44,IN,1613275203
saint-michel-des-saints,46.6834,-73.9159,3.0,93,100,2.19,CA,1613275205
hamilton,39.1834,-84.5333,26.6,74,90,9.22,US,1613275118
kavaratti,10.5669,72.642,81.07,60,95,6.49,IN,1613274987
sakakah,29.9697,40.2064,50.0,76,0,4.9,SA,1613274931
kaeo,-35.1,173.7833,69.01,97,100,5.01,NZ,1613275211
bambous virieux,-20.3428,57.7575,82.0,83,40,5.75,MU,1613275141
staryy nadym,65.6118,72.6842,-33.27,82,0,4.5,RU,1613275214
general roca,-39.0333,-67.5833,78.8,29,0,11.5,AR,1613275217
ponnani,10.767,75.9252,77.0,61,20,4.61,IN,1613275218
havelock,34.8791,-76.9013,41.0,100,90,11.5,US,1613275220
pevek,69.7008,170.3133,-15.32,88,91,3.11,RU,1613275221
mehamn,71.0357,27.8492,24.96,89,100,11.95,NO,1613275222
ugoofaaru,5.6667,73.0,80.6,67,6,8.32,MV,1613275224
tungor,53.3808,142.9564,17.31,95,100,6.82,RU,1613275225
beringovskiy,63.05,179.3167,1.83,93,100,16.04,RU,1613275226
sinjar,36.3209,41.8754,50.25,68,0,4.47,IQ,1613275227
hermiston,45.8404,-119.2895,19.99,79,90,3.44,US,1613275230
bajil,15.0584,43.2851,74.41,74,70,2.19,YE,1613275231
bandundu,-3.3167,17.3667,72.21,94,98,3.33,CD,1613275232
qandala,11.472,49.8728,74.01,51,15,5.53,SO,1613275233
khalkhal,37.6189,48.5258,35.11,78,80,4.21,IR,1613275235
evensk,61.95,159.2333,-5.08,83,48,5.55,RU,1613275237
prieska,-29.6641,22.7474,77.79,41,88,8.48,ZA,1613275238
provins,48.5833,3.1667,23.0,73,0,12.66,FR,1613275239
san andres,12.5847,-81.7006,80.6,78,20,6.91,CO,1613275104
mao,39.8885,4.2658,50.0,71,75,12.66,ES,1613275241
coquimbo,-29.9533,-71.3436,62.6,88,0,1.07,CL,1613275147
westport,41.1415,-73.3579,28.4,59,90,11.5,US,1613274985
stokmarknes,68.5646,14.9108,25.0,74,91,3.0,NO,1613275246
bubaque,11.2833,-15.8333,76.89,65,0,12.3,GW,1613275187
turukhansk,65.8167,87.9833,-29.0,79,0,6.55,RU,1613275248
xianyang,34.3378,108.7026,41.0,100,90,2.24,CN,1613275015
khandbari,27.3747,87.2039,68.45,38,29,2.21,NP,1613275251
brasilia de minas,-16.2064,-44.4333,67.96,87,100,4.97,BR,1613275252
kilindoni,-7.9139,39.6668,81.66,81,99,11.7,TZ,1613275253
troitskoye,52.9821,84.6757,6.64,93,89,7.85,RU,1613275254
hofn,64.2539,-15.2082,39.18,89,100,23.11,IS,1613275255
brooks,50.5834,-111.8851,-17.0,76,4,3.44,CA,1613275204
garowe,8.4054,48.4845,61.56,86,76,8.79,SO,1613275258
casper,42.8666,-106.3131,-6.0,71,90,16.11,US,1613275259
haines junction,60.7522,-137.5108,-14.8,76,0,1.14,CA,1613275260
aranos,-24.1333,19.1167,68.72,78,90,7.45,NA,1613275261
magadan,59.5667,150.8,3.06,85,0,4.12,RU,1613274980
ribeira grande,38.5167,-28.7,57.72,68,83,29.19,PT,1613275264
ouadda,8.0777,22.4007,69.49,25,2,4.76,CF,1613275265
bianzhuang,34.8486,118.0447,49.05,92,100,5.75,CN,1613275266
rancho palos verdes,33.7445,-118.387,57.0,88,93,10.0,US,1613274994
katangli,51.7102,143.2326,23.59,95,100,4.45,RU,1613275268
tubuala,9.5167,-79.0333,77.0,78,20,5.75,PA,1613275269
corn island,12.1694,-83.0418,79.93,73,63,7.92,NI,1613275271
sungaipenuh,-2.0833,101.3833,82.31,56,74,1.48,ID,1613275272
maningrida,-12.0667,134.2667,86.72,71,50,6.17,AU,1613275273
rio claro,-22.4114,-47.5614,70.0,82,93,3.27,BR,1613274999
alyangula,-13.8483,136.4192,89.6,62,59,8.05,AU,1613275264
mabopane,-25.4977,28.1007,68.0,83,100,5.75,ZA,1613275278
saint-joseph,-21.3667,55.6167,80.6,69,0,16.11,RE,1613275279
san cristobal,7.7669,-72.225,67.44,74,83,1.63,VE,1613275280
datong,40.0936,113.2914,35.2,70,71,11.83,CN,1613275281
bathsheba,13.2167,-59.5167,78.8,69,40,21.85,BB,1613275282
prince rupert,54.3161,-130.3201,35.6,32,1,8.05,CA,1613275284
avera,33.194,-82.5271,41.0,93,90,3.44,US,1613275285
nicoya,10.1483,-85.452,77.0,73,0,4.61,CR,1613275286
boguchany,58.3814,97.4531,-8.82,87,100,2.98,RU,1613275287
svatove,49.4103,38.1503,9.23,88,100,17.2,UA,1613275288
santa rosa del sur,7.9644,-74.0544,71.47,82,35,2.24,CO,1613275289
krasavino,60.9614,46.4814,0.72,92,100,14.0,RU,1613275291
asau,46.4333,26.4,19.99,46,89,5.86,RO,1613275292
eureka,40.8021,-124.1637,46.99,92,52,4.5,US,1613275091
yishui,35.7847,118.6281,50.11,80,100,3.69,CN,1613275294
ascension,30.2169,-90.9001,37.4,81,90,10.36,US,1613275295
ketchikan,55.3422,-131.6461,35.6,40,1,8.05,US,1613275296
kazachinskoye,57.6953,93.2761,-2.61,90,100,2.86,RU,1613275297
mareeba,-17.0,145.4333,91.99,70,100,10.36,AU,1613275299
puerto del rosario,28.5004,-13.8627,64.4,77,75,14.97,ES,1613275034
timizart,36.8,4.2667,49.64,89,100,4.7,DZ,1613275301
san patricio,28.017,-97.5169,33.8,86,90,12.66,US,1613275302
teguldet,57.3064,88.1667,1.2,93,100,6.71,RU,1613275303
manadhoo,5.7667,73.3833,80.76,69,51,8.72,MV,1613275305
ilhabela,-23.7781,-45.3581,75.31,82,100,4.99,BR,1613275270
damghan,36.1683,54.348,45.05,54,0,1.48,IR,1613275307
boden,65.8252,21.6886,12.2,85,90,10.36,SE,1613275102
iralaya,15.0,-83.2333,76.89,84,0,8.43,HN,1613275309
ternate,0.8,127.4,84.49,70,81,5.93,ID,1613275311
college,64.8569,-147.8028,-0.99,84,1,2.44,US,1613275312
golspie,57.9727,-3.978,35.6,75,90,4.61,GB,1613275313
moindou,-21.6924,165.677,87.8,66,20,10.36,NC,1613275314
vila velha,-20.3297,-40.2925,77.0,83,75,8.05,BR,1613275133
rawson,-43.3002,-65.1023,69.39,73,10,7.56,AR,1613275150
sambava,-14.2667,50.1667,77.25,85,56,4.79,MG,1613275318
nabire,-3.3667,135.4833,88.86,61,70,6.42,ID,1613275319
luderitz,-26.6481,15.1594,64.27,84,0,7.38,NA,1613275320
balotra,25.8333,72.2333,74.95,19,34,4.27,IN,1613275321
sierra vista,31.5545,-110.3037,53.6,37,20,21.85,US,1613275188
riyadh,24.6877,46.7219,51.8,46,0,4.38,SA,1613275039
medvezhyegorsk,62.9167,34.4667,-6.14,90,96,7.2,RU,1613275325
krasnopavlivka,49.1372,36.3272,8.06,93,100,15.35,UA,1613275326
arroyo,41.6096,-4.7969,42.01,100,90,4.61,ES,1613275327
ancud,-41.8697,-73.8203,53.01,81,0,3.44,CL,1613275328
igaracu do tiete,-22.5092,-48.5578,68.0,97,50,4.0,BR,1613275329
dunedin,-45.8742,170.5036,64.0,66,100,11.99,NZ,1613275331
guasdualito,7.2424,-70.7324,81.63,57,72,3.51,VE,1613275332
touros,-5.1989,-35.4608,78.8,83,40,4.61,BR,1613275333
burgeo,47.6167,-57.6152,18.37,90,3,13.56,CA,1613275334
novyy urengoy,66.0833,76.6333,-37.93,82,6,3.49,RU,1613275335
ilesha,7.1371,5.2583,73.74,98,33,2.55,NG,1613275337
maniitsoq,65.4167,-52.9,4.78,89,57,10.71,GL,1613275296
muscat,23.6139,58.5922,68.0,88,40,4.61,OM,1613275339
belawan,3.7755,98.6832,87.8,58,40,4.61,ID,1613275340
salinopolis,-0.6136,-47.3561,78.67,88,100,12.71,BR,1613275341
gonen,40.1049,27.654,36.0,65,100,5.01,TR,1613275342
vostok,46.4856,135.8833,20.14,94,94,7.9,RU,1613275345
khorixas,-20.3667,14.9667,63.54,89,77,3.71,NA,1613275346
kot kapura,30.5833,74.9,67.39,26,0,3.33,IN,1613275347
skibbereen,51.55,-9.2667,48.2,100,90,23.02,IE,1613275349
dakar,14.6937,-17.4441,66.2,82,0,6.91,SN,1613275351
ambilobe,-13.2,49.05,75.85,90,31,2.44,MG,1613275352
grand-santi,4.25,-54.3833,71.47,97,69,2.44,GF,1613275353
tongliao,43.6125,122.2653,13.21,90,100,10.33,CN,1613275354
maragogi,-9.0122,-35.2225,77.18,85,44,7.56,BR,1613275355
comodoro rivadavia,-45.8667,-67.5,68.0,34,0,18.41,AR,1613275356
male,4.1748,73.5089,84.2,74,20,9.22,MV,1613275262
hokitika,-42.7167,170.9667,63.03,67,100,8.41,NZ,1613275361
corowa,-36.0333,146.3833,82.0,44,75,6.91,AU,1613275362
uzhur,55.3036,89.8339,5.11,94,100,7.16,RU,1613275363
zhanakorgan,43.9098,67.2495,42.35,72,0,1.77,KZ,1613275364
mocuba,-16.8392,36.9856,74.5,88,90,5.21,MZ,1613275366
moose factory,51.2585,-80.6094,-9.4,77,90,5.75,CA,1613275367
saint-denis,48.9167,2.3333,25.0,63,0,8.05,FR,1613275368
hamina,60.5697,27.1979,19.4,93,90,2.3,FI,1613275369
kirakira,-10.4544,161.9205,84.4,76,48,10.2,SB,1613275371
shingu,33.7333,135.9833,64.4,52,40,11.5,JP,1613275374
baykit,61.67,96.37,-15.74,82,100,1.88,RU,1613275375
broome,42.2506,-75.833,26.01,42,90,6.91,US,1613275196
danville,36.586,-79.395,33.8,86,90,6.91,US,1613275377
starobaltachevo,56.0013,55.9213,15.78,93,100,14.58,RU,1613275378
kharp,66.8014,65.8081,-28.97,83,31,1.23,RU,1613275379
kikwit,-5.041,18.8162,71.73,94,100,1.9,CD,1613275381
beloha,-25.1667,45.05,75.29,76,100,9.42,MG,1613275382
dinskaya,45.2178,39.2283,26.6,68,75,15.66,RU,1613275383
delicias,41.6493,-0.9076,46.0,87,0,1.14,ES,1613275239
indian head,38.6001,-77.1622,28.4,86,90,5.82,US,1613275385
rio grande,-32.035,-52.0986,73.0,95,28,6.42,BR,1613275387
kungurtug,50.5994,97.5228,3.85,87,97,0.65,RU,1613275389
gat,31.61,34.7642,48.99,81,0,3.44,IL,1613275390
stolin,51.8912,26.846,21.52,97,83,11.52,BY,1613275391
dalbandin,28.8947,64.4101,67.05,21,0,3.11,PK,1613275393
khasan,42.4308,130.6434,32.36,97,100,8.08,RU,1613275394
tsiroanomandidy,-18.7667,46.0333,68.14,91,96,3.2,MG,1613275395
safaga,26.7292,33.9365,57.2,38,0,5.75,EG,1613275396
leningradskiy,69.3833,178.4167,-13.52,86,97,4.07,RU,1613275397
kant,27.8,79.8,66.87,40,0,5.1,IN,1613275398
yanggu,36.1106,115.7753,59.63,60,60,3.94,CN,1613275399
shyryayeve,47.3805,30.1964,13.68,95,0,9.82,UA,1613275402
mount isa,-20.7333,139.5,89.6,55,75,9.22,AU,1613275253
ponazyrevo,58.3578,46.3142,3.74,94,100,3.36,RU,1613275404
bilopillya,51.1502,34.3129,5.67,94,92,12.28,UA,1613275405
marawi,7.9986,124.2928,82.99,83,100,8.01,PH,1613275406
daytona beach,29.2108,-81.0228,68.0,94,20,3.44,US,1613275407
kwekwe,-18.9281,29.8149,62.85,97,94,2.93,ZW,1613275409
simpang,-1.2667,104.0833,83.28,75,100,7.4,ID,1613275410
sur,22.5667,59.5289,73.26,61,1,5.41,OM,1613275411
sangar,63.9242,127.4739,-10.01,90,100,6.42,RU,1613275412
floro,61.5996,5.0328,28.4,50,75,16.11,NO,1613275413
eyrarbakki,63.863,-21.1481,41.0,65,75,26.46,IS,1613275414
mackenzie,55.2999,-123.1698,-2.2,71,1,2.3,CA,1613275416
deder,9.3167,41.45,54.73,49,0,1.43,ET,1613275417
coihaique,-45.5752,-72.0662,55.4,67,0,3.44,CL,1613275418
svetlyy,54.675,20.1347,33.8,80,75,13.42,RU,1613275419
verkhnevilyuysk,63.4453,120.3167,-15.47,88,99,7.0,RU,1613275420
bengbu,32.9408,117.3608,58.87,71,86,10.63,CN,1613275421
mangochi,-14.4782,35.2645,73.92,87,100,12.73,MW,1613275422
tura,25.5198,90.2201,78.69,32,0,2.48,IN,1613275181
saint-augustin,51.226,-58.6502,1.42,89,75,10.54,CA,1613275425
mochalishche,56.3306,48.3547,3.2,85,0,11.18,RU,1613275426
kindu,-2.95,25.95,70.86,94,100,2.89,CD,1613275427
havre-saint-pierre,50.2334,-63.5986,3.2,72,1,5.75,CA,1613275428
vikarabad,17.3333,77.9,77.0,47,44,5.75,IN,1613275429
batticaloa,7.7102,81.6924,80.56,81,21,8.05,LK,1613275431
grindavik,63.8424,-22.4338,39.2,75,75,31.07,IS,1613275432
yaita,36.8,139.9333,59.0,47,20,9.22,JP,1613275433
telford,52.6766,-2.4493,35.6,60,90,14.97,GB,1613275434
shambu,9.5667,37.1,52.81,49,49,1.59,ET,1613275435
aurad,18.25,77.4333,79.45,29,49,13.27,IN,1613275436
isla vista,34.4133,-119.861,55.99,67,1,13.8,US,1613275421
naliya,23.2667,68.8333,72.01,63,0,5.46,IN,1613275439
saint-francois,46.4154,3.9054,19.99,79,0,6.91,FR,1613275440
alice springs,-23.7,133.8833,87.01,42,66,9.22,AU,1613275224
boyuibe,-20.4167,-63.2833,69.17,83,87,0.72,BO,1613275442
san jeronimo,-11.9472,-75.2829,49.66,69,63,0.56,PE,1613275443
gornji vakuf,43.9381,17.5883,15.8,67,90,6.91,BA,1613275444
harper,4.375,-7.7169,78.98,88,10,10.04,LR,1613275233
cayenne,4.9333,-52.3333,78.8,89,40,8.05,GF,1613275447
yuzhno-kurilsk,44.0306,145.8556,36.77,80,17,5.75,RU,1613275448
saint-pierre,-21.3393,55.4781,80.6,69,0,16.11,RE,1613275451
barra do garcas,-15.89,-52.2567,71.44,91,100,1.25,BR,1613275209
roma,43.2128,-75.4557,21.2,53,90,9.22,US,1613275454
ust-nera,64.5667,143.2,-5.28,81,53,4.59,RU,1613275220
homer,59.6425,-151.5483,35.6,64,75,11.5,US,1613275456
spring valley,36.108,-115.245,57.2,24,40,23.02,US,1613275457
belaya gora,68.5333,146.4167,-21.12,85,0,2.98,RU,1613275458
darque,41.6833,-8.7667,53.01,93,75,4.61,PT,1613275459
dudinka,69.4058,86.1778,-26.66,85,100,3.04,RU,1613275461
dois corregos,-22.3661,-48.3803,68.0,97,51,4.0,BR,1613275309
anse-bertrand,16.4721,-61.5078,75.2,83,40,11.5,GP,1613275463
betanzos,43.2804,-8.2147,57.99,82,0,17.27,ES,1613275464
bardiyah,31.7561,25.0865,56.21,66,0,12.46,LY,1613275465
macenta,8.5435,-9.471,72.52,86,73,3.65,GN,1613275466
taoudenni,22.6783,-3.9836,66.34,27,0,15.88,ML,1613275469
tianjin,39.1422,117.1767,35.6,60,90,11.18,CN,1613275470
tual,-5.6667,132.75,83.23,76,87,12.17,ID,1613275230
vallenar,-28.5708,-70.7581,61.21,63,0,0.38,CL,1613275472
palmer,42.1584,-72.3287,27.0,59,90,4.61,US,1613275473
moerai,-22.4333,-151.3333,82.71,64,0,5.7,PF,1613275474
houma,29.5958,-90.7195,42.8,81,90,10.36,US,1613275475
mahon,39.8885,4.2658,50.0,71,75,12.66,ES,1613275241
fare,-16.7,-151.0167,82.35,68,8,5.73,PF,1613275478
